[
  {
    "statId": "ME174125",
    "statNm": "㈜현대자동차 블루핸즈 서인천 서비스 주차장 입구",
    "addr": "인천광역시 서구 원삭로 160",
    "lat": 37.509973287,
    "lng": 126.64197627,
    "chargers_count": 1
  },
  {
    "statId": "ME18B192",
    "statNm": "가좌2동 행정복지센터",
    "addr": "인천광역시 서구 가좌동 30-105",
    "lat": 37.490759,
    "lng": 126.6852272,
    "chargers_count": 1
  },
  {
    "statId": "ME18B293",
    "statNm": "로봇타워",
    "addr": "인천광역시 서구 로봇랜드로 155-11",
    "lat": 37.5280515,
    "lng": 126.6081737,
    "chargers_count": 2
  },
  {
    "statId": "ME18B294",
    "statNm": "청라중앙호수공원 2주차장",
    "addr": "인천광역시 서구 경서동 638-5",
    "lat": 37.527265,
    "lng": 126.63678,
    "chargers_count": 2
  },
  {
    "statId": "ME18B295",
    "statNm": "서곶근린공원 제1주차장",
    "addr": "인천광역시 서구 연희동 산150-5",
    "lat": 37.54766783,
    "lng": 126.68108195,
    "chargers_count": 2
  },
  {
    "statId": "ME18B409",
    "statNm": "인천아시아드주경기장 D1주차장",
    "addr": "인천광역시 서구 연희동 187-8",
    "lat": 37.5497931,
    "lng": 126.6685351,
    "chargers_count": 4
  },
  {
    "statId": "ME18B605",
    "statNm": "인천서구청",
    "addr": "인천광역시 서구 서곶로 307",
    "lat": 37.544744813,
    "lng": 126.6762323,
    "chargers_count": 2
  },
  {
    "statId": "ME18B606",
    "statNm": "인천서구청소년수련관",
    "addr": "인천광역시 서구 원창로 92",
    "lat": 37.51786945,
    "lng": 126.65928097,
    "chargers_count": 2
  },
  {
    "statId": "ME19A167",
    "statNm": "국립생물자원관",
    "addr": "인천광역시 서구 환경로 42",
    "lat": 37.565291158,
    "lng": 126.63721531,
    "chargers_count": 1
  },
  {
    "statId": "ME19A259",
    "statNm": "인천환경공단 가좌사업소",
    "addr": "인천광역시 서구 중봉대로211",
    "lat": 37.4978561,
    "lng": 126.64765399999,
    "chargers_count": 2
  },
  {
    "statId": "ME20A286",
    "statNm": "서구청 제1공영주차장",
    "addr": "인천광역시 서구 탁옥로 51번길 26",
    "lat": 37.545976,
    "lng": 126.675636,
    "chargers_count": 2
  },
  {
    "statId": "ME20A287",
    "statNm": "청라사업소",
    "addr": "인천광역시 서구 경서동 673-6",
    "lat": 37.5280476,
    "lng": 126.6081269,
    "chargers_count": 2
  },
  {
    "statId": "ME21A143",
    "statNm": "청라복합문화센터",
    "addr": "인천광역시 서구 청라대로 26",
    "lat": 37.5248064,
    "lng": 126.6338018,
    "chargers_count": 1
  },
  {
    "statId": "ME21B228",
    "statNm": "인천서부경찰서",
    "addr": "인천광역시 서구 탁옥로 77",
    "lat": 37.5439122,
    "lng": 126.6781294,
    "chargers_count": 2
  },
  {
    "statId": "ME21C236",
    "statNm": "인천국민안전체험관",
    "addr": "인천광역시 서구 봉오재1로 120",
    "lat": 37.5219804,
    "lng": 126.6761204,
    "chargers_count": 2
  },
  {
    "statId": "ME21C2A8",
    "statNm": "경인항 인천터미널 아라뱃길 충전소",
    "addr": "인천광역시 서구 정서진1로 41",
    "lat": 37.557878,
    "lng": 126.608404,
    "chargers_count": 2
  },
  {
    "statId": "ME21D050",
    "statNm": "인천서구청 제1주차장",
    "addr": "인천광역시 서구 탁옥로51번길 26",
    "lat": 37.5459352,
    "lng": 126.6755823,
    "chargers_count": 1
  },
  {
    "statId": "ME22B903",
    "statNm": "인천공항 졸음쉼터",
    "addr": "인천광역시 서구 인천국제공항고속도로 24(검암동)",
    "lat": 37.5691052,
    "lng": 126.6622963,
    "chargers_count": 3
  },
  {
    "statId": "ME22C122",
    "statNm": "남청라영업소",
    "addr": "인천광역시 서구 청라동 194-2",
    "lat": 37.5152149,
    "lng": 126.6207346,
    "chargers_count": 1
  },
  {
    "statId": "ME22D1B4",
    "statNm": "검단제1 공영주차장",
    "addr": "인천광역시 서구 마전동 986",
    "lat": 37.601586,
    "lng": 126.6611015,
    "chargers_count": 1
  },
  {
    "statId": "ME24B209",
    "statNm": "인천환경공단 가좌사업소",
    "addr": "인천광역시 서구 중봉대로211",
    "lat": 37.496672,
    "lng": 126.645047,
    "chargers_count": 2
  }
]